[
    {
      "longitude": -123.13271027785173,
      "latitude": 49.29010391706197,
      "title": "Amazon Hub Locker - Robson",
      "address": "1675 Robson St, Vancouver, BC V6G 1C8, Canada"
    },
    {
      "longitude": -123.13271027785173,
      "latitude": 49.29010391706197,
      "title": "Amazon Hub Locker - Robson",
      "address": "1675 Robson St, Vancouver, BC V6G 1C8, Canada"
    },
    {
      "longitude": -123.13428304815704,
      "latitude": 49.280705277227625,
      "title": "Amazon Hub Locker - Bobtail",
      "address": "1176 Burnaby St, Vancouver, BC V6E 1P1, Canada"
    },
    {
      "longitude": -123.12419611767818,
      "latitude": 49.28169238955873,
      "title": "Amazon Hub Locker - Voltmeter",
      "address": "900 Burrard St, Vancouver, BC V6Z 3G5, Canada"
    },
    {
      "longitude": -123.12858995194533,
      "latitude": 49.27838833253954,
      "title": "Amazon Hub Locker - Asif",
      "address": "904 Davie St, Vancouver, BC V6Z 1B8, Canada"
    },
    {
      "longitude": -123.13102581887678,
      "latitude": 49.27491020868351,
      "title": "Amazon Hub Locker - Mahogany",
      "address": "1480 Howe St, Vancouver, BC V6Z 1C4, Canada"
    },
    {
      "longitude": -123.09451103698422,
      "latitude": 49.27211667582941,
      "title": "Amazon Hub Locker - Workgroup",
      "address": "369 Terminal Ave, Vancouver, BC V6A 4C4, Canada"
    },
    {
      "longitude": -123.11528093202048,
      "latitude": 49.2640241637882,
      "title": "Amazon Hub Locker - Cambie",
      "address": "510 W 8th Ave, Vancouver, BC V5Z 1C5, Canada"
    },
    {
      "longitude": -123.0583274910539,
      "latitude": 49.28095021967962,
      "title": "Amazon Hub Locker - Estolano",
      "address": "2280 E Hastings St #101, Vancouver, BC V5L 1V4, Canada"
    }    
]